{
    "POV_LatLong":[
     {
      "ID": 1,
      "Name": "208 Wireless Road",
      "Lat": 13.7394195,
      "Lon": 100.5464001,
      "FileName": "1.png"
     },
     {
      "ID": 2,
      "Name": "42 Tower",
      "Lat": 13.715405,
      "Lon": 100.584539,
      "FileName": "2.png"
     },
     {
      "ID": 3,
      "Name": "Abdulrahim Place",
      "Lat": 13.7275477,
      "Lon": 100.538924,
      "FileName": "3.png"
     },
     {
      "ID": 4,
      "Name": "AIS Tower 1",
      "Lat": 13.7834521,
      "Lon": 100.5464956,
      "FileName": "4.png"
     },
     {
      "ID": 5,
      "Name": "AIS Tower 2",
      "Lat": 13.786356,
      "Lon": 100.5466463,
      "FileName": "5.png"
     },
     {
      "ID": 6,
      "Name": "Amigo Tower",
      "Lat": 13.7316134,
      "Lon": 100.5228934,
      "FileName": "6.png"
     },
     {
      "ID": 7,
      "Name": "Ari Hills",
      "Lat": 13.7843946,
      "Lon": 100.5474139,
      "FileName": "7.png"
     },
     {
      "ID": 8,
      "Name": "Asoke Tower",
      "Lat": 13.745416,
      "Lon": 100.5622568,
      "FileName": "8.png"
     },
     {
      "ID": 9,
      "Name": "Athenee Tower",
      "Lat": 13.7150398,
      "Lon": 100.5335358,
      "FileName": "9.png"
     },
     {
      "ID": 10,
      "Name": "At Sathorn Building",
      "Lat": 13.745416,
      "Lon": 100.5622568,
      "FileName": "10.png"
     },
     {
      "ID": 11,
      "Name": "Bangkok Business Center",
      "Lat": 13.7244699,
      "Lon": 100.5841796,
      "FileName": "11.png"
     },
     {
      "ID": 12,
      "Name": "Bangkok City Tower",
      "Lat": 13.7215291,
      "Lon": 100.5311938,
      "FileName": "12.png"
     },
     {
      "ID": 13,
      "Name": "Bangkok Thai Tower",
      "Lat": 13.7586259,
      "Lon": 100.5400711,
      "FileName": "13.png"
     },
     {
      "ID": 14,
      "Name": "Bangna Tower A",
      "Lat": 13.6595025,
      "Lon": 100.6619174,
      "FileName": "14.png"
     },
     {
      "ID": 15,
      "Name": "Bangna Tower B",
      "Lat": 13.6595025,
      "Lon": 100.6619174,
      "FileName": "15.png"
     },
     {
      "ID": 16,
      "Name": "Bangna Tower C",
      "Lat": 13.6590016,
      "Lon": 100.6616612,
      "FileName": "16.png"
     },
     {
      "ID": 17,
      "Name": "BBD Building",
      "Lat": 13.7337024,
      "Lon": 100.5254518,
      "FileName": "17.png"
     },
     {
      "ID": 18,
      "Name": "Berli Jucker",
      "Lat": 13.6120818,
      "Lon": 100.7711102,
      "FileName": "18.png"
     },
     {
      "ID": 19,
      "Name": "Bhiraj Tower at Bitec",
      "Lat": 13.669937,
      "Lon": 100.6060283,
      "FileName": "19.png"
     },
     {
      "ID": 20,
      "Name": "Bhiraj Tower at Emquartier",
      "Lat": 13.7311344,
      "Lon": 100.5697304,
      "FileName": "20.png"
     },
     {
      "ID": 21,
      "Name": "Bubhajit Building (JP Morgan)",
      "Lat": 13.7254864,
      "Lon": 100.5410274,
      "FileName": "21.png"
     },
     {
      "ID": 22,
      "Name": "BUI Building",
      "Lat": 13.7278155,
      "Lon": 100.5256656,
      "FileName": "22.png"
     },
     {
      "ID": 23,
      "Name": "C.M. Tower",
      "Lat": 13.7204376,
      "Lon": 100.4994958,
      "FileName": "23.png"
     },
     {
      "ID": 24,
      "Name": "C.P.Tower 1",
      "Lat": 13.7275188,
      "Lon": 100.5324225,
      "FileName": "24.png"
     },
     {
      "ID": 25,
      "Name": "C.P.Tower 2",
      "FileName": "25.png"
     },
     {
      "ID": 26,
      "Name": "C.P.Tower 3",
      "FileName": "26.png"
     },
     {
      "ID": 27,
      "Name": "C.P.Tower Hat Yai",
      "FileName": "27.png"
     },
     {
      "ID": 28,
      "Name": "C.P.Tower Khonkaen 1",
      "FileName": "28.png"
     },
     {
      "ID": 29,
      "Name": "C.P.Tower Khonkaen 2",
      "FileName": "29.png"
     },
     {
      "ID": 30,
      "Name": "C.P.Tower Khonkaen 3",
      "FileName": "30.png"
     },
     {
      "ID": 31,
      "Name": "Central City Tower",
      "Lat": 13.6686672,
      "Lon": 100.6317746,
      "FileName": "31.png"
     },
     {
      "ID": 32,
      "Name": "Chalanttip Building",
      "FileName": "32.png"
     },
     {
      "ID": 33,
      "Name": "Chamchuri Square",
      "Lat": 13.7329345,
      "Lon": 100.5305695,
      "FileName": "33.png"
     },
     {
      "ID": 34,
      "Name": "Chamnan Phenjati Business Center",
      "Lat": 13.7566234,
      "Lon": 100.5687505,
      "FileName": "34.png"
     },
     {
      "ID": 35,
      "Name": "Charn Issara Tower 1",
      "Lat": 13.7300518,
      "Lon": 100.5341019,
      "FileName": "35.png"
     },
     {
      "ID": 36,
      "Name": "Charn Issara Tower 2",
      "Lat": 13.7433499,
      "Lon": 100.5881535,
      "FileName": "36.png"
     },
     {
      "ID": 37,
      "Name": "Chartered Square",
      "Lat": 13.7188958,
      "Lon": 100.5194255,
      "FileName": "37.png"
     },
     {
      "ID": 38,
      "Name": "Chubb Tower",
      "FileName": "38.png"
     },
     {
      "ID": 39,
      "Name": "Country Complex Tower A",
      "Lat": 13.6740634,
      "Lon": 100.5995853,
      "FileName": "39.png"
     },
     {
      "ID": 40,
      "Name": "CTI Tower",
      "Lat": 13.7325889,
      "Lon": 100.5603178,
      "FileName": "40.png"
     },
     {
      "ID": 41,
      "Name": "CW Tower A",
      "Lat": 13.769696,
      "Lon": 100.5737353,
      "FileName": "41.png"
     },
     {
      "ID": 42,
      "Name": "CW Tower B",
      "Lat": 13.769696,
      "Lon": 100.5737353,
      "FileName": "42.png"
     },
     {
      "ID": 43,
      "Name": "East Water",
      "Lat": 13.7994089,
      "Lon": 100.5581206,
      "FileName": "43.png"
     },
     {
      "ID": 44,
      "Name": "Elephant Building A",
      "Lat": 13.8253032,
      "Lon": 100.5683793,
      "FileName": "44.png"
     },
     {
      "ID": 45,
      "Name": "Elephant Building B",
      "Lat": 13.8253032,
      "Lon": 100.5683793,
      "FileName": "45.png"
     },
     {
      "ID": 46,
      "Name": "Electrolux Building",
      "Lat": 13.7994089,
      "Lon": 100.5581206,
      "FileName": "46.png"
     },
     {
      "ID": 47,
      "Name": "Empire Tower 1",
      "Lat": 13.7205344,
      "Lon": 100.5280397,
      "FileName": "47.png"
     },
     {
      "ID": 48,
      "Name": "Empire Tower 2",
      "Lat": 13.7205344,
      "Lon": 100.5280344,
      "FileName": "48.png"
     },
     {
      "ID": 49,
      "Name": "Empire Tower 3",
      "Lat": 13.7205344,
      "Lon": 100.5280344,
      "FileName": "49.png"
     },
     {
      "ID": 50,
      "Name": "Energy Complex Tower A",
      "Lat": 13.8193487,
      "Lon": 100.5551071,
      "FileName": "50.png"
     },
     {
      "ID": 51,
      "Name": "Energy Complex Tower B",
      "Lat": 13.819368,
      "Lon": 100.5546512,
      "FileName": "51.png"
     },
     {
      "ID": 52,
      "Name": "ESV Tower",
      "FileName": "52.png"
     },
     {
      "ID": 53,
      "Name": "Evergreen Place",
      "Lat": 13.750779,
      "Lon": 100.5284905,
      "FileName": "53.png"
     },
     {
      "ID": 54,
      "Name": "Exchange Tower",
      "Lat": 13.7370243,
      "Lon": 100.5554515,
      "FileName": "54.png"
     },
     {
      "ID": 55,
      "Name": "Forum Tower",
      "Lat": 13.773384,
      "Lon": 100.5717239,
      "FileName": "55.png"
     },
     {
      "ID": 56,
      "Name": "G Tower",
      "Lat": 13.7569726,
      "Lon": 100.5635104,
      "FileName": "56.png"
     },
     {
      "ID": 57,
      "Name": "Gems Tower",
      "Lat": 13.7235345,
      "Lon": 100.515198,
      "FileName": "57.png"
     },
     {
      "ID": 58,
      "Name": "Glas Haus Ratchada Building A",
      "Lat": 13.7375959,
      "Lon": 100.5471733,
      "FileName": "58.png"
     },
     {
      "ID": 59,
      "Name": "Glas Haus Ratchada Building B",
      "Lat": 13.7375959,
      "Lon": 100.5471733,
      "FileName": "59.png"
     },
     {
      "ID": 60,
      "Name": "GPF Witthayu Tower A",
      "FileName": "60.png"
     },
     {
      "ID": 61,
      "Name": "GPF Witthayu Tower B",
      "FileName": "61.png"
     },
     {
      "ID": 62,
      "Name": "Gypsum Metropolitan",
      "Lat": 13.7567314,
      "Lon": 100.5395819,
      "FileName": "62.png"
     },
     {
      "ID": 63,
      "Name": "Harindhorn",
      "Lat": 13.7244575,
      "Lon": 100.5368834,
      "FileName": "63.png"
     },
     {
      "ID": 64,
      "Name": "Home Place",
      "Lat": 13.7378358,
      "Lon": 100.4942503,
      "FileName": "64.png"
     },
     {
      "ID": 65,
      "Name": "Interchange Building",
      "Lat": 13.7369608,
      "Lon": 100.5620488,
      "FileName": "65.png"
     },
     {
      "ID": 66,
      "Name": "Interlink Tower",
      "FileName": "66.png"
     },
     {
      "ID": 67,
      "Name": "IT Square 1",
      "Lat": 13.8863038,
      "Lon": 100.5811982,
      "FileName": "67.png"
     },
     {
      "ID": 68,
      "Name": "IT Square 2",
      "Lat": 13.8863038,
      "Lon": 100.5811982,
      "FileName": "68.png"
     },
     {
      "ID": 69,
      "Name": "Italthai Tower",
      "Lat": 13.7466275,
      "Lon": 100.5737523,
      "FileName": "69.png"
     },
     {
      "ID": 70,
      "Name": "ITF Tower",
      "Lat": 13.7266661,
      "Lon": 100.5281684,
      "FileName": "70.png"
     },
     {
      "ID": 71,
      "Name": "Iyara Tower",
      "FileName": "71.png"
     },
     {
      "ID": 72,
      "Name": "J Press Tower",
      "Lat": 13.7227778,
      "Lon": 100.5320222,
      "FileName": "72.png"
     },
     {
      "ID": 73,
      "Name": "Jasmine City Tower",
      "Lat": 13.735626,
      "Lon": 100.562779,
      "FileName": "73.png"
     },
     {
      "ID": 74,
      "Name": "Jewellery Center Building",
      "Lat": 13.7290718,
      "Lon": 100.5236508,
      "FileName": "74.png"
     },
     {
      "ID": 75,
      "Name": "Jewelry Trade Center",
      "Lat": 13.7225814,
      "Lon": 100.5201592,
      "FileName": "75.png"
     },
     {
      "ID": 76,
      "Name": "Kamol Sukosol",
      "Lat": 13.7732255,
      "Lon": 100.6119596,
      "FileName": "76.png"
     },
     {
      "ID": 77,
      "Name": "Kiatnakin Building",
      "Lat": 13.7284876,
      "Lon": 100.5131137,
      "FileName": "77.png"
     },
     {
      "ID": 78,
      "Name": "KPI Tower",
      "Lat": 13.7490702,
      "Lon": 100.5442012,
      "FileName": "78.png"
     },
     {
      "ID": 79,
      "Name": "KPN Tower",
      "Lat": 13.7540074,
      "Lon": 100.5866099,
      "FileName": "79.png"
     },
     {
      "ID": 80,
      "Name": "Kronos Sathorn Tower",
      "Lat": 13.7249042,
      "Lon": 100.5385573,
      "FileName": "80.png"
     },
     {
      "ID": 81,
      "Name": "KSL Building",
      "Lat": 13.7290902,
      "Lon": 100.5345429,
      "FileName": "81.png"
     },
     {
      "ID": 82,
      "Name": "Ladprao Hills",
      "Lat": 13.8119444,
      "Lon": 100.5618397,
      "FileName": "82.png"
     },
     {
      "ID": 83,
      "Name": "Lake Rajada Office Complex",
      "Lat": 13.7313706,
      "Lon": 100.5607022,
      "FileName": "83.png"
     },
     {
      "ID": 84,
      "Name": "Lao Peng Nguan",
      "Lat": 13.8068324,
      "Lon": 100.559237,
      "FileName": "84.png"
     },
     {
      "ID": 85,
      "Name": "Le Concorde Tower",
      "Lat": 13.7760473,
      "Lon": 100.5739959,
      "FileName": "85.png"
     },
     {
      "ID": 86,
      "Name": "Liberty Plaza",
      "Lat": 13.7424852,
      "Lon": 100.5835329,
      "FileName": "86.png"
     },
     {
      "ID": 87,
      "Name": "Liberty Square",
      "Lat": 13.7277122,
      "Lon": 100.5308257,
      "FileName": "87.png"
     },
     {
      "ID": 88,
      "Name": "LPN Tower",
      "Lat": 13.7039205,
      "Lon": 100.5444222,
      "FileName": "88.png"
     },
     {
      "ID": 89,
      "Name": "Lumpini Tower",
      "Lat": 13.7237857,
      "Lon": 100.5493461,
      "FileName": "89.png"
     },
     {
      "ID": 90,
      "Name": "M Tower",
      "Lat": 13.7139239,
      "Lon": 100.5698757,
      "FileName": "90.png"
     },
     {
      "ID": 91,
      "Name": "Major Tower (Rama 9 - Ramkumhang)",
      "Lat": 13.7139239,
      "Lon": 100.5698757,
      "FileName": "91.png"
     },
     {
      "ID": 92,
      "Name": "Major Tower (Thonglor)",
      "FileName": "92.png"
     },
     {
      "ID": 93,
      "Name": "Maleenont Tower",
      "Lat": 13.7176532,
      "Lon": 100.57218,
      "FileName": "93.png"
     },
     {
      "ID": 94,
      "Name": "Manorom",
      "Lat": 13.7173197,
      "Lon": 100.5699239,
      "FileName": "94.png"
     },
     {
      "ID": 95,
      "Name": "MD Tower",
      "Lat": 13.6682019,
      "Lon": 100.6361677,
      "FileName": "95.png"
     },
     {
      "ID": 96,
      "Name": "Mercury Tower",
      "Lat": 13.7433663,
      "Lon": 100.541955,
      "FileName": "96.png"
     },
     {
      "ID": 97,
      "Name": "Metropolis",
      "Lat": 13.7378555,
      "Lon": 100.4945938,
      "FileName": "97.png"
     },
     {
      "ID": 98,
      "Name": "Modern Town",
      "FileName": "98.png"
     },
     {
      "ID": 99,
      "Name": "MS Siam Tower",
      "Lat": 13.6862677,
      "Lon": 100.5472012,
      "FileName": "99.png"
     },
     {
      "ID": 100,
      "Name": "MSIG Building",
      "FileName": "100.png"
     },
     {
      "ID": 101,
      "Name": "MU Tower",
      "FileName": "101.png"
     },
     {
      "ID": 102,
      "Name": "Muang Thai-Phatra Complex Tower 1",
      "Lat": 13.7870009,
      "Lon": 100.5750758,
      "FileName": "102.png"
     },
     {
      "ID": 103,
      "Name": "Muang Thai-Phatra Complex Tower 2",
      "Lat": 13.7870009,
      "Lon": 100.5750758,
      "FileName": "103.png"
     },
     {
      "ID": 104,
      "Name": "NT Bangrak",
      "FileName": "104.png"
     },
     {
      "ID": 105,
      "Name": "NT Chaengwattana",
      "FileName": "105.png"
     },
     {
      "ID": 106,
      "Name": "Nuam Tower",
      "FileName": "106.png"
     },
     {
      "ID": 107,
      "Name": "Ocean Insurance Building",
      "Lat": 13.7282989,
      "Lon": 100.5260678,
      "FileName": "107.png"
     },
     {
      "ID": 108,
      "Name": "Ocean Tower 1",
      "Lat": 13.7427736,
      "Lon": 100.5614864,
      "FileName": "108.png"
     },
     {
      "ID": 109,
      "Name": "Ocean Tower 2",
      "Lat": 13.7427736,
      "Lon": 100.5614864,
      "FileName": "109.png"
     },
     {
      "ID": 110,
      "Name": "One Pacific (Pacific Place)",
      "Lat": 13.7407664,
      "Lon": 100.5522015,
      "FileName": "110.png"
     },
     {
      "ID": 111,
      "Name": "Paso Tower",
      "FileName": "111.png"
     },
     {
      "ID": 112,
      "Name": "Pearl Bangkok",
      "Lat": 13.7779164,
      "Lon": 100.5437301,
      "FileName": "112.png"
     },
     {
      "ID": 113,
      "Name": "Phaholyothin Place",
      "Lat": 13.7829,
      "Lon": 100.5461,
      "FileName": "113.png"
     },
     {
      "ID": 114,
      "Name": "Panjathani Tower",
      "Lat": 13.6960715,
      "Lon": 100.5376227,
      "FileName": "114.png"
     },
     {
      "ID": 115,
      "Name": "Pipattanasin Building",
      "Lat": 13.7107581,
      "Lon": 100.5361314,
      "FileName": "115.png"
     },
     {
      "ID": 116,
      "Name": "Piyavan Tower",
      "FileName": "116.png"
     },
     {
      "ID": 117,
      "Name": "Ploenchit Center",
      "Lat": 13.741573,
      "Lon": 100.5514156,
      "FileName": "117.png"
     },
     {
      "ID": 118,
      "Name": "PS Tower",
      "Lat": 13.7411995,
      "Lon": 100.5624047,
      "FileName": "118.png"
     },
     {
      "ID": 119,
      "Name": "Q House Ploenjit",
      "Lat": 13.7411995,
      "Lon": 100.5624047,
      "FileName": "119.png"
     },
     {
      "ID": 120,
      "Name": "Q House Sathorn",
      "Lat": 13.7249411,
      "Lon": 100.543851,
      "FileName": "120.png"
     },
     {
      "ID": 121,
      "Name": "Rajanakarn",
      "Lat": 13.7209578,
      "Lon": 100.5295198,
      "FileName": "121.png"
     },
     {
      "ID": 122,
      "Name": "Ramaland Building",
      "Lat": 13.7295402,
      "Lon": 100.535209,
      "FileName": "122.png"
     },
     {
      "ID": 123,
      "Name": "Regent House",
      "Lat": 13.7361865,
      "Lon": 100.5374399,
      "FileName": "123.png"
     },
     {
      "ID": 124,
      "Name": "RJ3",
      "FileName": "124.png"
     },
     {
      "ID": 125,
      "Name": "Royal Thai Army Radio And Television Station",
      "Lat": 13.7809685,
      "Lon": 100.5372564,
      "FileName": "125.png"
     },
     {
      "ID": 126,
      "Name": "RS Tower",
      "Lat": 13.7672553,
      "Lon": 100.5705898,
      "FileName": "126.png"
     },
     {
      "ID": 127,
      "Name": "RSU Tower",
      "Lat": 13.733321,
      "Lon": 100.5663272,
      "FileName": "127.png"
     },
     {
      "ID": 128,
      "Name": "Sathorn Nakorn",
      "Lat": 13.7150398,
      "Lon": 100.5335358,
      "FileName": "128.png"
     },
     {
      "ID": 129,
      "Name": "Sathorn Prime Tower",
      "FileName": "129.png"
     },
     {
      "ID": 130,
      "Name": "Sathorn Thani Tower 1",
      "Lat": 13.722705,
      "Lon": 100.5308326,
      "FileName": "130.png"
     },
     {
      "ID": 131,
      "Name": "Sathorn Thani Tower 2",
      "Lat": 13.722705,
      "Lon": 100.5308326,
      "FileName": "131.png"
     },
     {
      "ID": 132,
      "Name": "SC Tower",
      "Lat": 13.7838696,
      "Lon": 100.546441,
      "FileName": "132.png"
     },
     {
      "ID": 133,
      "Name": "Sermmit Tower",
      "Lat": 13.7409235,
      "Lon": 100.5615689,
      "FileName": "133.png"
     },
     {
      "ID": 134,
      "Name": "SG Tower",
      "Lat": 13.7385236,
      "Lon": 100.5423553,
      "FileName": "134.png"
     },
     {
      "ID": 135,
      "Name": "Shinawatra Tower 3",
      "Lat": 13.823176,
      "Lon": 100.5595287,
      "FileName": "135.png"
     },
     {
      "ID": 136,
      "Name": "Silom 64",
      "FileName": "136.png"
     },
     {
      "ID": 137,
      "Name": "Silom Complex",
      "Lat": 13.7284547,
      "Lon": 100.5351261,
      "FileName": "137.png"
     },
     {
      "ID": 138,
      "Name": "Sindhorn Tower 1",
      "Lat": 13.7359938,
      "Lon": 100.5451216,
      "FileName": "138.png"
     },
     {
      "ID": 139,
      "Name": "Sindhorn Tower 2",
      "Lat": 13.7359938,
      "Lon": 100.5451216,
      "FileName": "139.png"
     },
     {
      "ID": 140,
      "Name": "Sindhorn Tower 3",
      "Lat": 13.7359938,
      "Lon": 100.5451216,
      "FileName": "140.png"
     },
     {
      "ID": 141,
      "Name": "Singha Complex",
      "Lat": 13.7480964,
      "Lon": 100.5645784,
      "FileName": "141.png"
     },
     {
      "ID": 142,
      "Name": "Sinn Sathorn Tower",
      "Lat": 13.7217114,
      "Lon": 100.4995461,
      "FileName": "142.png"
     },
     {
      "ID": 143,
      "Name": "Sinothai Tower",
      "Lat": 13.7399476,
      "Lon": 100.5624249,
      "FileName": "143.png"
     },
     {
      "ID": 144,
      "Name": "Sirinrat Tower",
      "Lat": 13.7168818,
      "Lon": 100.5706024,
      "FileName": "144.png"
     },
     {
      "ID": 145,
      "Name": "Siripinyo",
      "Lat": 13.7579832,
      "Lon": 100.5355301,
      "FileName": "145.png"
     },
     {
      "ID": 146,
      "Name": "Sitthivorakit Building",
      "Lat": 13.7270914,
      "Lon": 100.5286919,
      "FileName": "146.png"
     },
     {
      "ID": 147,
      "Name": "Skulthai Surawong Tower",
      "Lat": 13.7289959,
      "Lon": 100.5292583,
      "FileName": "147.png"
     },
     {
      "ID": 148,
      "Name": "Software Park",
      "Lat": 13.9042062,
      "Lon": 100.529708,
      "FileName": "148.png"
     },
     {
      "ID": 149,
      "Name": "Sor Tower",
      "FileName": "149.png"
     },
     {
      "ID": 150,
      "Name": "Sorachai Building",
      "Lat": 13.7237623,
      "Lon": 100.5842374,
      "FileName": "150.png"
     },
     {
      "ID": 151,
      "Name": "SP Building",
      "FileName": "151.png"
     },
     {
      "ID": 152,
      "Name": "SPE Tower",
      "FileName": "152.png"
     },
     {
      "ID": 153,
      "Name": "Spring Tower",
      "FileName": "153.png"
     },
     {
      "ID": 154,
      "Name": "Srijulsup Tower",
      "Lat": 13.7478316,
      "Lon": 100.5201031,
      "FileName": "154.png"
     },
     {
      "ID": 155,
      "Name": "SSP Tower 1",
      "Lat": 13.7147774,
      "Lon": 100.5580397,
      "FileName": "155.png"
     },
     {
      "ID": 156,
      "Name": "SSP Tower 2",
      "Lat": 13.7147774,
      "Lon": 100.5580397,
      "FileName": "156.png"
     },
     {
      "ID": 157,
      "Name": "Suntowers Building A",
      "Lat": 13.8080794,
      "Lon": 100.5586968,
      "FileName": "157.png"
     },
     {
      "ID": 158,
      "Name": "Suntowers Building B",
      "Lat": 13.8080794,
      "Lon": 100.5586968,
      "FileName": "158.png"
     },
     {
      "ID": 159,
      "Name": "Supalai Grand Tower",
      "Lat": 13.6829019,
      "Lon": 100.5476116,
      "FileName": "159.png"
     },
     {
      "ID": 160,
      "Name": "SV City Office 1",
      "Lat": 13.6735388,
      "Lon": 100.5430158,
      "FileName": "160.png"
     },
     {
      "ID": 161,
      "Name": "SV City Office 2",
      "Lat": 13.6735388,
      "Lon": 100.5430158,
      "FileName": "161.png"
     },
     {
      "ID": 162,
      "Name": "Tararom Business Tower",
      "Lat": 13.7434078,
      "Lon": 100.5914306,
      "FileName": "162.png"
     },
     {
      "ID": 163,
      "Name": "Tara Sathorn Tower",
      "FileName": "163.png"
     },
     {
      "ID": 164,
      "Name": "Thai CC Tower",
      "Lat": 13.7184863,
      "Lon": 100.5215383,
      "FileName": "164.png"
     },
     {
      "ID": 165,
      "Name": "Thai Summit Tower",
      "Lat": 13.7476008,
      "Lon": 100.5672175,
      "FileName": "165.png"
     },
     {
      "ID": 166,
      "Name": "Thaiwah Tower 1",
      "Lat": 13.7242609,
      "Lon": 100.539565,
      "FileName": "166.png"
     },
     {
      "ID": 167,
      "Name": "Thanapoom Tower",
      "Lat": 13.7491532,
      "Lon": 100.5568193,
      "FileName": "167.png"
     },
     {
      "ID": 168,
      "Name": "Thaniya Atrium",
      "Lat": 13.7285246,
      "Lon": 100.5337432,
      "FileName": "168.png"
     },
     {
      "ID": 169,
      "Name": "Thaniya BTS",
      "Lat": 13.7285246,
      "Lon": 100.5337432,
      "FileName": "169.png"
     },
     {
      "ID": 170,
      "Name": "The Millennia Tower",
      "Lat": 13.7385696,
      "Lon": 100.5423341,
      "FileName": "170.png"
     },
     {
      "ID": 171,
      "Name": "The Ninth Tower A",
      "Lat": 13.7585987,
      "Lon": 100.5677958,
      "FileName": "171.png"
     },
     {
      "ID": 172,
      "Name": "The Ninth Tower B",
      "Lat": 13.7585987,
      "Lon": 100.5677958,
      "FileName": "172.png"
     },
     {
      "ID": 173,
      "Name": "The Stock Exchange of Thailand",
      "FileName": "173.png"
     },
     {
      "ID": 174,
      "Name": "The Trendy",
      "Lat": 13.7403827,
      "Lon": 100.5556117,
      "FileName": "174.png"
     },
     {
      "ID": 175,
      "Name": "Thosapol Land Building 4",
      "Lat": 13.6677782,
      "Lon": 100.6364021,
      "FileName": "175.png"
     },
     {
      "ID": 176,
      "Name": "Tisco Tower",
      "Lat": 13.7248093,
      "Lon": 100.5357969,
      "FileName": "176.png"
     },
     {
      "ID": 177,
      "Name": "Tower B (RJ3)",
      "FileName": "177.png"
     },
     {
      "ID": 178,
      "Name": "TP&T Tower",
      "Lat": 13.8286283,
      "Lon": 100.556963,
      "FileName": "178.png"
     },
     {
      "ID": 179,
      "Name": "TPI Tower",
      "Lat": 13.7079087,
      "Lon": 100.5381693,
      "FileName": "179.png"
     },
     {
      "ID": 180,
      "Name": "TRR Tower",
      "Lat": 13.6973331,
      "Lon": 100.5435397,
      "FileName": "180.png"
     },
     {
      "ID": 181,
      "Name": "True Tower 1",
      "FileName": "181.png"
     },
     {
      "ID": 182,
      "Name": "True Tower 2",
      "FileName": "182.png"
     },
     {
      "ID": 183,
      "Name": "True Tower 2 Building 2",
      "FileName": "183.png"
     },
     {
      "ID": 184,
      "Name": "TST Tower",
      "Lat": 13.8080006,
      "Lon": 100.5591619,
      "FileName": "184.png"
     },
     {
      "ID": 185,
      "Name": "Two Pacific (Pacific Place)",
      "Lat": 13.7409768,
      "Lon": 100.5523493,
      "FileName": "185.png"
     },
     {
      "ID": 186,
      "Name": "UBC 2",
      "Lat": 13.7327782,
      "Lon": 100.5675962,
      "FileName": "186.png"
     },
     {
      "ID": 187,
      "Name": "U-Chu-Liang Building",
      "Lat": 13.7272529,
      "Lon": 100.5405044,
      "FileName": "187.png"
     },
     {
      "ID": 188,
      "Name": "United Center",
      "Lat": 13.7269,
      "Lon": 100.5315,
      "FileName": "188.png"
     },
     {
      "ID": 189,
      "Name": "Vasu 1 Building",
      "Lat": 13.7353956,
      "Lon": 100.560988,
      "FileName": "189.png"
     },
     {
      "ID": 190,
      "Name": "Virgo Tower",
      "FileName": "190.png"
     },
     {
      "ID": 191,
      "Name": "Vongvanij Complex Building B",
      "Lat": 13.7548981,
      "Lon": 100.5727006,
      "FileName": "191.png"
     },
     {
      "ID": 192,
      "Name": "Vorasombat Building",
      "Lat": 13.7553661,
      "Lon": 100.5720888,
      "FileName": "192.png"
     },
     {
      "ID": 193,
      "Name": "Vorawat Building",
      "Lat": 13.7236649,
      "Lon": 100.5215077,
      "FileName": "193.png"
     },
     {
      "ID": 194,
      "Name": "Wall Street Tower",
      "Lat": 13.7296187,
      "Lon": 100.5280614,
      "FileName": "194.png"
     },
     {
      "ID": 195,
      "Name": "Wave Place",
      "Lat": 13.7439521,
      "Lon": 100.5479479,
      "FileName": "195.png"
     }
    ],
    "Station_LatLong":[
     {
      "ID": "N24",
      "NameTH": "คูคต",
      "Name": "Khu Khot",
      "Lat": 13.93285685,
      "Lon": 100.6465707,
      "FileName": "N24.png"
     },
     {
      "ID": "N23",
      "NameTH": "แยก คปอ.",
      "Name": "Yaek Kor Por Aor",
      "Lat": 13.92497134,
      "Lon": 100.625941,
      "FileName": "N23.png"
     },
     {
      "ID": "N22",
      "NameTH": "พิพิธภัณฑ์กองทัพอากาศ",
      "Name": "Royal Thai Air Force Museum",
      "Lat": 13.91802327,
      "Lon": 100.6217943,
      "FileName": "N22.png"
     },
     {
      "ID": "N21",
      "NameTH": "โรงพยาบาลภูมิพลฯ",
      "Name": "Bhumibol Adulyadej Hospital",
      "Lat": 13.91081019,
      "Lon": 100.6173906,
      "FileName": "N21.png"
     },
     {
      "ID": "N20",
      "NameTH": "สะพานใหม่",
      "Name": "Saphan Mai",
      "Lat": 13.89662833,
      "Lon": 100.6091536,
      "FileName": "N20.png"
     },
     {
      "ID": "N19",
      "NameTH": "สายหยุด",
      "Name": "Sai Yud",
      "Lat": 13.88845777,
      "Lon": 100.6043257,
      "FileName": "N19.png"
     },
     {
      "ID": "N18",
      "NameTH": "พหลโยธิน 59",
      "Name": "Phahon Yothin 59",
      "Lat": 13.88245454,
      "Lon": 100.6007883,
      "FileName": "N18.png"
     },
     {
      "ID": "N17",
      "NameTH": "วัดพระศรีมหาธาตุ",
      "Name": "Wat Phra Sri Mahathat",
      "Lat": 13.87528353,
      "Lon": 100.5968345,
      "FileName": "N17.png"
     },
     {
      "ID": "N16",
      "NameTH": "กรมทหารราบที่ 11",
      "Name": "11th Infantry Regiment",
      "Lat": 13.86754575,
      "Lon": 100.5919675,
      "FileName": "N16.png"
     },
     {
      "ID": "N15",
      "NameTH": "บางบัว",
      "Name": "Bang Bua",
      "Lat": 13.85599197,
      "Lon": 100.585187,
      "FileName": "N15.png"
     },
     {
      "ID": "N14",
      "NameTH": "กรมป่าไม้",
      "Name": "Royal Forest Department",
      "Lat": 13.85026299,
      "Lon": 100.5817935,
      "FileName": "N14.png"
     },
     {
      "ID": "N13",
      "NameTH": "มหาวิทยาลัยเกษตรศาสตร์",
      "Name": "Kasetsart University",
      "Lat": 13.84230542,
      "Lon": 100.577143,
      "FileName": "N13.png"
     },
     {
      "ID": "N12",
      "NameTH": "เสนานิคม",
      "Name": "Sena Nikhom",
      "Lat": 13.83630327,
      "Lon": 100.5737527,
      "FileName": "N12.png"
     },
     {
      "ID": "N11",
      "NameTH": "รัชโยธิน",
      "Name": "Ratchayothin",
      "Lat": 13.82972094,
      "Lon": 100.5696421,
      "FileName": "N11.png"
     },
     {
      "ID": "N10",
      "NameTH": "พหลโยธิน 24",
      "Name": "Phahon Yothin 24",
      "Lat": 13.82408023,
      "Lon": 100.5664517,
      "FileName": "N10.png"
     },
     {
      "ID": "N9",
      "NameTH": "ห้าแยกลาดพร้าว",
      "Name": "Ha Yaek Lat Phrao",
      "Lat": 13.81645708,
      "Lon": 100.5619624,
      "FileName": "N9.png"
     },
     {
      "ID": "N8",
      "NameTH": "หมอชิต",
      "Name": "Mo Chit",
      "Lat": 13.80533166,
      "Lon": 100.5531179,
      "FileName": "N8.png"
     },
     {
      "ID": "N7",
      "NameTH": "สะพานควาย",
      "Name": "Saphan Khwai",
      "Lat": 13.79632955,
      "Lon": 100.550028,
      "FileName": "N7.png"
     },
     {
      "ID": "N5",
      "NameTH": "อารีย์",
      "Name": "Ari",
      "Lat": 13.77978556,
      "Lon": 100.5446001,
      "FileName": "N5.png"
     },
     {
      "ID": "N4",
      "NameTH": "สนามเป้า",
      "Name": "Sanam Pao",
      "Lat": 13.77549001,
      "Lon": 100.5428182,
      "FileName": "N4.png"
     },
     {
      "ID": "N3",
      "NameTH": "อนุสาวรีย์ชัยฯ",
      "Name": "Victory Monument",
      "Lat": 13.7637348,
      "Lon": 100.5372257,
      "FileName": "N3.png"
     },
     {
      "ID": "N2",
      "NameTH": "พญาไท",
      "Name": "Phaya Thai",
      "Lat": 13.75746419,
      "Lon": 100.5348326,
      "FileName": "N2.png"
     },
     {
      "ID": "N1",
      "NameTH": "ราชเทวี",
      "Name": "Ratchathewi",
      "Lat": 13.75308548,
      "Lon": 100.5316046,
      "FileName": "N1.png"
     },
     {
      "ID": "Cen",
      "NameTH": "สยาม",
      "Name": "Siam",
      "Lat": 13.74561841,
      "Lon": 100.5340824,
      "FileName": "Cen.png"
     },
     {
      "ID": "W1",
      "NameTH": "สนามกีฬาฯ",
      "Name": "National Stadium",
      "Lat": 13.74663512,
      "Lon": 100.5290889,
      "FileName": "W1.png"
     },
     {
      "ID": "S1",
      "NameTH": "ราชดำริ",
      "Name": "Ratchadamri",
      "Lat": 13.73954458,
      "Lon": 100.5394316,
      "FileName": "S1.png"
     },
     {
      "ID": "S2",
      "NameTH": "ศาลาแดง",
      "Name": "Sala Daeng",
      "Lat": 13.72858938,
      "Lon": 100.5341244,
      "FileName": "S2.png"
     },
     {
      "ID": "S3",
      "NameTH": "ช่องนนทรี",
      "Name": "Chong Nonsi",
      "Lat": 13.72372212,
      "Lon": 100.5293773,
      "FileName": "S3.png"
     },
     {
      "ID": "S4",
      "NameTH": "เซนต์หลุยส์",
      "Name": "Saint Louis",
      "Lat": 13.72104784,
      "Lon": 100.5268757,
      "FileName": "S4.png"
     },
     {
      "ID": "S5",
      "NameTH": "สุรศักดิ์",
      "Name": "Surasak",
      "Lat": 13.71928955,
      "Lon": 100.5215385,
      "FileName": "S5.png"
     },
     {
      "ID": "S6",
      "NameTH": "สะพานตากสิน",
      "Name": "Saphan Taksin",
      "Lat": 13.71880242,
      "Lon": 100.5140672,
      "FileName": "S6.png"
     },
     {
      "ID": "S7",
      "NameTH": "กรุงธนบุรี",
      "Name": "Krung Thonburi",
      "Lat": 13.72100773,
      "Lon": 100.5026707,
      "FileName": "S7.png"
     },
     {
      "ID": "S8",
      "NameTH": "วงเวียนใหญ่",
      "Name": "Wongwian Yai",
      "Lat": 13.72115801,
      "Lon": 100.4953029,
      "FileName": "S8.png"
     },
     {
      "ID": "S9",
      "NameTH": "โพธิ์นิมิตร",
      "Name": "Pho Nimit",
      "Lat": 13.71919747,
      "Lon": 100.4857218,
      "FileName": "S9.png"
     },
     {
      "ID": "S10",
      "NameTH": "ตลาดพลู",
      "Name": "Talat Phlu",
      "Lat": 13.71421071,
      "Lon": 100.4767475,
      "FileName": "S10.png"
     },
     {
      "ID": "S11",
      "NameTH": "วุฒากาศ",
      "Name": "Wutthakat",
      "Lat": 13.71304489,
      "Lon": 100.4686605,
      "FileName": "S11.png"
     },
     {
      "ID": "S12",
      "NameTH": "บางหว้า",
      "Name": "Bang Wa",
      "Lat": 13.72081109,
      "Lon": 100.4571039,
      "FileName": "S12.png"
     },
     {
      "ID": "E1",
      "NameTH": "ชิดลม",
      "Name": "Chit Lom",
      "Lat": 13.74454623,
      "Lon": 100.5430622,
      "FileName": "E1.png"
     },
     {
      "ID": "E2",
      "NameTH": "เพลินจิต",
      "Name": "Phloen Chit",
      "Lat": 13.74302714,
      "Lon": 100.5487703,
      "FileName": "E2.png"
     },
     {
      "ID": "E3",
      "NameTH": "นานา",
      "Name": "Nana",
      "Lat": 13.74066264,
      "Lon": 100.5555235,
      "FileName": "E3.png"
     },
     {
      "ID": "E4",
      "NameTH": "อโศก",
      "Name": "Asok",
      "Lat": 13.73744065,
      "Lon": 100.560373,
      "FileName": "E4.png"
     },
     {
      "ID": "E5",
      "NameTH": "พร้อมพงษ์",
      "Name": "Phrom Phong",
      "Lat": 13.73060141,
      "Lon": 100.5701146,
      "FileName": "E5.png"
     },
     {
      "ID": "E6",
      "NameTH": "ทองหล่อ",
      "Name": "Thong Lo",
      "Lat": 13.72433715,
      "Lon": 100.5781004,
      "FileName": "E6.png"
     },
     {
      "ID": "E7",
      "NameTH": "เอกมัย",
      "Name": "Ekkamai",
      "Lat": 13.71957301,
      "Lon": 100.5849788,
      "FileName": "E7.png"
     },
     {
      "ID": "E8",
      "NameTH": "พระโขนง",
      "Name": "Phra Khanong",
      "Lat": 13.71518266,
      "Lon": 100.5910855,
      "FileName": "E8.png"
     },
     {
      "ID": "E9",
      "NameTH": "อ่อนนุช",
      "Name": "On Nut",
      "Lat": 13.70567263,
      "Lon": 100.6008453,
      "FileName": "E9.png"
     },
     {
      "ID": "E10",
      "NameTH": "บางจาก",
      "Name": "Bang Chak",
      "Lat": 13.69707019,
      "Lon": 100.6055185,
      "FileName": "E10.png"
     },
     {
      "ID": "E11",
      "NameTH": "ปุณณวิถี",
      "Name": "Punnawithi",
      "Lat": 13.68918439,
      "Lon": 100.6086875,
      "FileName": "E11.png"
     },
     {
      "ID": "E12",
      "NameTH": "อุดมสุข",
      "Name": "Udomsuk",
      "Lat": 13.67990936,
      "Lon": 100.6093928,
      "FileName": "E12.png"
     },
     {
      "ID": "E13",
      "NameTH": "บางนา",
      "Name": "Bang Na",
      "Lat": 13.66818574,
      "Lon": 100.6047524,
      "FileName": "E13.png"
     },
     {
      "ID": "E14",
      "NameTH": "แบริ่ง",
      "Name": "Bearing",
      "Lat": 13.66128184,
      "Lon": 100.6018037,
      "FileName": "E14.png"
     },
     {
      "ID": "E15",
      "NameTH": "สำโรง",
      "Name": "Samrong",
      "Lat": 13.64619849,
      "Lon": 100.5955967,
      "FileName": "E15.png"
     },
     {
      "ID": "E16",
      "NameTH": "ปู่เจ้า",
      "Name": "Pu Chao",
      "Lat": 13.63736204,
      "Lon": 100.5919601,
      "FileName": "E16.png"
     },
     {
      "ID": "E17",
      "NameTH": "ช้างเอราวัณ",
      "Name": "Chang Erawan",
      "Lat": 13.62145,
      "Lon": 100.5900901,
      "FileName": "E17.png"
     },
     {
      "ID": "E18",
      "NameTH": "โรงเรียนนายเรือ",
      "Name": "Royal Thai Naval Academy",
      "Lat": 13.60842969,
      "Lon": 100.5949892,
      "FileName": "E18.png"
     },
     {
      "ID": "E19",
      "NameTH": "ปากน้ำ",
      "Name": "Pak Nam",
      "Lat": 13.60215003,
      "Lon": 100.5971178,
      "FileName": "E19.png"
     },
     {
      "ID": "E20",
      "NameTH": "ศรีนครินทร์",
      "Name": "Srinagarindra",
      "Lat": 13.59228501,
      "Lon": 100.6087922,
      "FileName": "E20.png"
     },
     {
      "ID": "E21",
      "NameTH": "แพรกษา",
      "Name": "Phraek Sa",
      "Lat": 13.58430385,
      "Lon": 100.6080445,
      "FileName": "E21.png"
     },
     {
      "ID": "E22",
      "NameTH": "สายลวด",
      "Name": "Sai Luat",
      "Lat": 13.57780223,
      "Lon": 100.6053539,
      "FileName": "E22.png"
     },
     {
      "ID": "E23",
      "NameTH": "เคหะฯ",
      "Name": "Kheha",
      "Lat": 13.5679138,
      "Lon": 100.6074825,
      "FileName": "E23.png"
     }
    ]
    }